[{"ID":95704,"Image":"stop_sign_medium.gif","Latitude":28.0656563836558,"Longitude":-82.4112689495087,"Name":"Holly Mail Room","RtpiNumber":421,"ShowLabel":false,"ShowVehicleName":false},{"ID":95706,"Image":"stop_sign_medium.gif","Latitude":28.0656942525367,"Longitude":-82.4094772338867,"Name":"Maple Suites at Holly","RtpiNumber":425,"ShowLabel":false,"ShowVehicleName":false},{"ID":95524,"Image":"stop_sign.gif","Latitude":28.0677509860841,"Longitude":-82.4076010286808,"Name":"Greek Housing","RtpiNumber":432,"ShowLabel":false,"ShowVehicleName":false},{"ID":95529,"Image":"stop_sign.gif","Latitude":28.0666468871809,"Longitude":-82.4080301821232,"Name":"Cypress Apartments","RtpiNumber":430,"ShowLabel":false,"ShowVehicleName":false},{"ID":95851,"Image":"stop_sign_medium.gif","Latitude":28.0656374492104,"Longitude":-82.4073958396912,"Name":"Lot 35","RtpiNumber":445,"ShowLabel":false,"ShowVehicleName":false},{"ID":95856,"Image":"stop_sign_medium.gif","Latitude":28.0655995803095,"Longitude":-82.4028253555298,"Name":"Park and Ride Lot 18 at Par Course","RtpiNumber":151,"ShowLabel":false,"ShowVehicleName":false},{"ID":95860,"Image":"stop_sign_medium.gif","Latitude":28.0635451724365,"Longitude":-82.4028199911118,"Name":"Park and Ride Lot 18 at Softball Fields","RtpiNumber":155,"ShowLabel":false,"ShowVehicleName":false},{"ID":95865,"Image":"stop_sign_medium.gif","Latitude":28.0598859569993,"Longitude":-82.402767688036,"Name":"Park and Ride Lot 18 at Soccer Fields","RtpiNumber":157,"ShowLabel":false,"ShowVehicleName":false},{"ID":95867,"Image":"stop_sign_medium.gif","Latitude":28.0597877292534,"Longitude":-82.4045366048813,"Name":"Lee Roy Selmon Athletics Center ","RtpiNumber":161,"ShowLabel":false,"ShowVehicleName":false},{"ID":95873,"Image":"stop_sign_medium.gif","Latitude":28.057618411696,"Longitude":-82.4054673314095,"Name":"Sun Dome East","RtpiNumber":165,"ShowLabel":false,"ShowVehicleName":false},{"ID":95727,"Image":"stop_sign_medium.gif","Latitude":28.0573000520804,"Longitude":-82.4096421897411,"Name":"Business North","RtpiNumber":129,"ShowLabel":false,"ShowVehicleName":false},{"ID":95345,"Image":"stop_sign.gif","Latitude":28.0592113791048,"Longitude":-82.4130204319954,"Name":"Library LIB","RtpiNumber":102,"ShowLabel":false,"ShowVehicleName":false},{"ID":95349,"Image":"stop_sign.gif","Latitude":28.0591853426802,"Longitude":-82.4133825302124,"Name":"Math \u0026 Engineering ","RtpiNumber":101,"ShowLabel":false,"ShowVehicleName":false},{"ID":95902,"Image":"stop_sign.gif","Latitude":28.0580728713724,"Longitude":-82.4161291122437,"Name":"Center for Transportation Research ","RtpiNumber":203,"ShowLabel":false,"ShowVehicleName":false},{"ID":95908,"Image":"stop_sign_medium.gif","Latitude":28.0602031254935,"Longitude":-82.4175882339478,"Name":"Science Center","RtpiNumber":209,"ShowLabel":false,"ShowVehicleName":false},{"ID":95911,"Image":"stop_sign.gif","Latitude":28.0612646863689,"Longitude":-82.4195140600204,"Name":"The Lakes","RtpiNumber":213,"ShowLabel":false,"ShowVehicleName":false},{"ID":95917,"Image":"stop_sign_medium.gif","Latitude":28.0625913268598,"Longitude":-82.4191345274448,"Name":"Fine Arts","RtpiNumber":217,"ShowLabel":false,"ShowVehicleName":false},{"ID":95920,"Image":"stop_sign_medium.gif","Latitude":28.0638481290616,"Longitude":-82.418897151947,"Name":"Psychology Center","RtpiNumber":221,"ShowLabel":false,"ShowVehicleName":false},{"ID":95925,"Image":"stop_sign_medium.gif","Latitude":28.0649416060261,"Longitude":-82.418897151947,"Name":"School of Music West","RtpiNumber":225,"ShowLabel":false,"ShowVehicleName":false},{"ID":231768,"Image":"stop_sign_medium.gif","Latitude":28.0663853572686,"Longitude":-82.4176472425461,"Name":"Bull Runner Office","RtpiNumber":325,"ShowLabel":false,"ShowVehicleName":false},{"ID":95942,"Image":"stop_sign_medium.gif","Latitude":28.0677935877437,"Longitude":-82.4164308607578,"Name":"Park and Ride Lot 43 to Marshall Center","RtpiNumber":327,"ShowLabel":false,"ShowVehicleName":false},{"ID":95945,"Image":"stop_sign.gif","Latitude":28.0676527655267,"Longitude":-82.4148537218571,"Name":"Lot 44","RtpiNumber":329,"ShowLabel":false,"ShowVehicleName":false},{"ID":95548,"Image":"stop_sign.gif","Latitude":28.0643605498469,"Longitude":-82.4138331413269,"Name":"Marshall Student Center","RtpiNumber":401,"ShowLabel":false,"ShowVehicleName":false}]