[{"ID":95554,"Image":"stop_sign.gif","Latitude":28.067134443508,"Longitude":-82.4131478369236,"Name":"Andros","RtpiNumber":414,"ShowLabel":false,"ShowVehicleName":false},{"ID":95557,"Image":"stop_sign.gif","Latitude":28.0677154846882,"Longitude":-82.4146538972855,"Name":"Park and Ride 43 East","RtpiNumber":330,"ShowLabel":false,"ShowVehicleName":false},{"ID":95561,"Image":"stop_sign.gif","Latitude":28.0678847079035,"Longitude":-82.4165180325508,"Name":"Park and Ride Lot 43 West","RtpiNumber":328,"ShowLabel":false,"ShowVehicleName":false},{"ID":95569,"Image":"stop_sign_medium.gif","Latitude":28.0664019247933,"Longitude":-82.4176941812038,"Name":"Laurel Garage ","RtpiNumber":326,"ShowLabel":false,"ShowVehicleName":false},{"ID":95626,"Image":"stop_sign.gif","Latitude":28.0660859579904,"Longitude":-82.4192109704018,"Name":"Morsani Center","RtpiNumber":312,"ShowLabel":false,"ShowVehicleName":false},{"ID":95629,"Image":"stop_sign_medium.gif","Latitude":28.0660824077963,"Longitude":-82.4208283424377,"Name":"Social Work Center","RtpiNumber":314,"ShowLabel":false,"ShowVehicleName":false},{"ID":95639,"Image":"stop_sign_medium.gif","Latitude":28.0643664669318,"Longitude":-82.4237868189812,"Name":"College of Nursing","RtpiNumber":317,"ShowLabel":false,"ShowVehicleName":false},{"ID":95654,"Image":"stop_sign.gif","Latitude":28.0668421466551,"Longitude":-82.423937022686,"Name":"Westside Conference Center","RtpiNumber":340,"ShowLabel":false,"ShowVehicleName":false},{"ID":95660,"Image":"stop_sign_medium.gif","Latitude":28.067191246043,"Longitude":-82.4249441921711,"Name":"College of Public Health","RtpiNumber":342,"ShowLabel":false,"ShowVehicleName":false},{"ID":95666,"Image":"stop_sign_medium.gif","Latitude":28.0679876617572,"Longitude":-82.4254041910172,"Name":"Continuing Education","RtpiNumber":344,"ShowLabel":false,"ShowVehicleName":false},{"ID":95674,"Image":"stop_sign_medium.gif","Latitude":28.0687876216732,"Longitude":-82.423397898674,"Name":"Chiles Center","RtpiNumber":346,"ShowLabel":false,"ShowVehicleName":false},{"ID":96179,"Image":"stop_sign_medium.gif","Latitude":28.0659782687179,"Longitude":-82.4191197752953,"Name":"Moffit Research","RtpiNumber":311,"ShowLabel":false,"ShowVehicleName":false},{"ID":95687,"Image":"stop_sign.gif","Latitude":28.0654504713824,"Longitude":-82.4179342389107,"Name":"School of Music North","RtpiNumber":305,"ShowLabel":false,"ShowVehicleName":false},{"ID":95691,"Image":"stop_sign.gif","Latitude":28.0648433829007,"Longitude":-82.4163597822189,"Name":"Fine Arts Studio","RtpiNumber":303,"ShowLabel":false,"ShowVehicleName":false},{"ID":95692,"Image":"stop_sign.gif","Latitude":28.0648445663124,"Longitude":-82.4146834015846,"Name":"Theater","RtpiNumber":301,"ShowLabel":false,"ShowVehicleName":false},{"ID":95548,"Image":"stop_sign.gif","Latitude":28.0643605498469,"Longitude":-82.4138331413269,"Name":"Marshall Student Center","RtpiNumber":401,"ShowLabel":false,"ShowVehicleName":false}]